City_ID,City,Lat,Lng,Max Temp,Humidity,Cloudiness,Wind Speed,Description,Country,Date
0,atuona,-9.8,-139.0333,78.64,75,76,15.55,broken clouds,PF,2021-12-11 04:47:46
1,bairiki,1.3292,172.9752,87.8,62,40,12.66,scattered clouds,KI,2021-12-11 04:47:46
2,kochi,9.9399,76.2602,84.18,56,5,3.02,clear sky,IN,2021-12-11 04:47:46
3,bagdarin,54.4333,113.6,1.72,65,15,6.17,few clouds,RU,2021-12-11 04:47:47
4,roald,62.5833,6.1333,31.33,80,62,5.75,broken clouds,NO,2021-12-11 04:47:47
5,rikitea,-23.1203,-134.9692,76.06,69,77,17.07,broken clouds,PF,2021-12-11 04:47:47
6,cidreira,-30.1811,-50.2056,64.83,77,71,5.26,broken clouds,BR,2021-12-11 04:47:48
7,kautokeino,69.0125,23.0412,0.64,100,93,3.06,overcast clouds,NO,2021-12-11 04:47:48
8,arraial do cabo,-22.9661,-42.0278,71.82,85,97,6.69,overcast clouds,BR,2021-12-11 04:47:49
9,lebu,-37.6167,-73.65,55.38,91,92,4.07,overcast clouds,CL,2021-12-11 04:47:49
10,sambava,-14.2667,50.1667,76.53,73,100,7.14,overcast clouds,MG,2021-12-11 04:47:49
11,east london,-33.0153,27.9116,68.94,94,75,12.66,mist,ZA,2021-12-11 04:47:50
12,port elizabeth,-33.918,25.5701,71.1,94,20,10.36,few clouds,ZA,2021-12-11 04:47:50
13,buchanan,5.8808,-10.0467,78.3,84,44,5.32,light rain,LR,2021-12-11 04:47:51
14,port blair,11.6667,92.75,83.44,69,3,14.9,clear sky,IN,2021-12-11 04:47:51
15,rochegda,62.8,43.25,-0.6,98,70,4.05,broken clouds,RU,2021-12-11 04:47:51
16,sobolevo,54.4299,31.8996,33.22,92,100,17.45,light snow,RU,2021-12-11 04:47:52
17,biak,-0.9131,122.8766,83.32,74,89,2.26,overcast clouds,ID,2021-12-11 04:47:52
18,lukovetskiy,64.2956,41.9211,4.98,92,89,6.15,overcast clouds,RU,2021-12-11 04:47:52
19,jizan,17.3333,42.6667,72.54,29,1,3.29,clear sky,SA,2021-12-11 04:47:53
20,tuktoyaktuk,69.4541,-133.0374,-13.0,77,40,10.36,scattered clouds,CA,2021-12-11 04:47:53
21,punta arenas,-53.15,-70.9167,51.91,66,75,13.8,broken clouds,CL,2021-12-11 04:47:54
22,bluff,-46.6,168.3333,57.79,55,79,16.4,broken clouds,NZ,2021-12-11 04:47:54
23,kumluca,36.3703,30.2869,55.67,81,75,3.71,broken clouds,TR,2021-12-11 04:47:54
24,cairns,-16.9167,145.7667,102.94,66,96,8.05,overcast clouds,AU,2021-12-11 04:47:55
25,hermanus,-34.4187,19.2345,66.79,81,77,13.15,broken clouds,ZA,2021-12-11 04:47:55
26,det udom,14.906,105.0784,81.03,51,6,5.41,clear sky,TH,2021-12-11 04:47:55
27,malinyi,-8.9333,36.1333,76.78,72,7,2.06,clear sky,TZ,2021-12-11 04:47:56
28,mahebourg,-20.4081,57.7,82.69,65,40,13.8,scattered clouds,MU,2021-12-11 04:47:56
29,tilichiki,60.4667,166.1,-14.04,89,14,8.59,few clouds,RU,2021-12-11 04:47:56
30,kenai,60.5544,-151.2583,24.03,89,90,4.61,light snow,US,2021-12-11 04:47:57
31,jamestown,42.097,-79.2353,47.84,79,90,4.0,overcast clouds,US,2021-12-11 04:47:57
32,barguzin,53.6167,109.6167,7.93,78,48,9.01,scattered clouds,RU,2021-12-11 04:47:58
33,kavieng,-2.5744,150.7967,80.15,82,100,16.78,overcast clouds,PG,2021-12-11 04:47:58
34,saint george,37.1041,-113.5841,38.25,41,1,1.01,clear sky,US,2021-12-11 04:43:14
35,ushuaia,-54.8,-68.3,46.06,87,40,14.97,scattered clouds,AR,2021-12-11 04:45:58
36,dikson,73.5069,80.5464,-13.16,80,100,1.61,overcast clouds,RU,2021-12-11 04:48:00
37,airai,-8.9266,125.4092,72.14,73,45,2.15,scattered clouds,TL,2021-12-11 04:48:01
38,katsuura,35.1333,140.3,59.14,58,1,3.29,clear sky,JP,2021-12-11 04:48:01
39,dhidhdhoo,6.8833,73.1,81.66,73,0,4.94,clear sky,MV,2021-12-11 04:48:02
40,hobart,-42.8794,147.3294,63.01,54,75,1.01,broken clouds,AU,2021-12-11 04:48:02
41,busselton,-33.65,115.3333,71.04,46,70,15.21,broken clouds,AU,2021-12-11 04:48:02
42,hilo,19.7297,-155.09,73.13,38,1,0.0,clear sky,US,2021-12-11 04:45:51
43,caravelas,-17.7125,-39.2481,73.27,89,100,5.88,overcast clouds,BR,2021-12-11 04:48:03
44,ostrovnoy,68.0531,39.5131,23.65,77,100,29.84,overcast clouds,RU,2021-12-11 04:48:04
45,talnakh,69.4865,88.3972,-11.79,97,100,5.7,overcast clouds,RU,2021-12-11 04:48:04
46,gaborone,-24.6545,25.9086,69.71,78,0,6.91,clear sky,BW,2021-12-11 04:49:05
47,lata,40.1629,-8.3327,52.81,97,46,3.09,scattered clouds,PT,2021-12-11 04:49:05
48,solaro,44.8799,9.1732,39.63,91,83,3.2,broken clouds,IT,2021-12-11 04:49:05
49,kati,12.7441,-8.0726,60.21,17,42,3.76,scattered clouds,ML,2021-12-11 04:49:06
50,portland,45.5234,-122.6762,48.63,79,90,4.0,overcast clouds,US,2021-12-11 04:44:49
51,vila velha,-20.3297,-40.2925,73.35,94,20,5.99,few clouds,BR,2021-12-11 04:49:06
52,new norfolk,-42.7826,147.0587,62.65,43,72,1.99,broken clouds,AU,2021-12-11 04:49:07
53,khatanga,71.9667,102.5,-47.87,100,68,2.82,broken clouds,RU,2021-12-11 04:49:07
54,bethel,41.3712,-73.414,42.49,85,75,0.0,broken clouds,US,2021-12-11 04:49:07
55,hualmay,-11.0964,-77.6139,66.25,90,87,8.05,overcast clouds,PE,2021-12-11 04:49:08
56,leku,6.8667,38.45,60.15,32,37,5.12,scattered clouds,ET,2021-12-11 04:49:08
57,vardo,70.3705,31.1107,25.63,82,100,26.64,overcast clouds,NO,2021-12-11 04:49:08
58,quatre cocos,-20.2078,57.7625,82.51,64,20,12.39,few clouds,MU,2021-12-11 04:49:09
59,auki,-8.7676,160.7034,81.61,87,98,10.02,moderate rain,SB,2021-12-11 04:49:09
60,sabha,27.0377,14.4283,46.83,52,59,4.52,broken clouds,LY,2021-12-11 04:49:10
61,forestville,38.8451,-76.875,49.51,88,90,3.44,light rain,US,2021-12-11 04:49:10
62,chokurdakh,70.6333,147.9167,-48.19,100,73,3.29,broken clouds,RU,2021-12-11 04:49:10
63,nikolskoye,59.7035,30.7861,19.4,80,97,10.96,overcast clouds,RU,2021-12-11 04:49:11
64,port hardy,50.6996,-127.4199,44.76,93,90,10.36,moderate rain,CA,2021-12-11 04:49:11
65,saldanha,-33.0117,17.9442,59.05,84,77,6.85,broken clouds,ZA,2021-12-11 04:49:11
66,mataura,-46.1927,168.8643,57.47,68,99,4.32,overcast clouds,NZ,2021-12-11 04:49:12
67,albany,42.6001,-73.9662,35.8,83,78,2.8,broken clouds,US,2021-12-11 04:49:12
68,san patricio,28.017,-97.5169,76.89,88,99,15.41,overcast clouds,US,2021-12-11 04:49:12
69,nishihara,26.1842,127.7558,76.28,50,40,12.66,scattered clouds,JP,2021-12-11 04:47:30
70,xichang,27.8964,102.2634,55.38,69,97,2.28,overcast clouds,CN,2021-12-11 04:49:13
71,guerrero negro,27.9769,-114.0611,58.96,68,23,11.54,few clouds,MX,2021-12-11 04:46:14
72,aquin,18.2833,-73.4,75.13,74,1,3.56,clear sky,HT,2021-12-11 04:49:13
73,cayenne,4.9333,-52.3333,78.1,88,75,8.01,broken clouds,GF,2021-12-11 04:49:14
74,ushibuka,32.1906,130.0228,61.09,70,73,4.34,broken clouds,JP,2021-12-11 04:49:14
75,knin,44.0439,16.2,43.79,83,100,9.24,overcast clouds,HR,2021-12-11 04:49:15
76,tasiilaq,65.6145,-37.6368,37.56,70,100,28.12,overcast clouds,GL,2021-12-11 04:49:15
77,qaanaaq,77.484,-69.3632,-3.69,73,76,6.69,broken clouds,GL,2021-12-11 04:49:16
78,kapaa,22.0752,-159.319,76.12,77,40,3.0,scattered clouds,US,2021-12-11 04:49:16
79,vaini,-21.2,-175.2,82.56,83,20,10.36,few clouds,TO,2021-12-11 04:49:16
80,port alfred,-33.5906,26.891,71.62,87,5,13.6,clear sky,ZA,2021-12-11 04:49:17
81,yakeshi,49.2833,120.7333,6.28,88,99,10.16,overcast clouds,CN,2021-12-11 04:49:17
82,nekrasovskoye,57.6766,40.3657,-5.91,77,0,4.47,clear sky,RU,2021-12-11 04:49:17
83,barra patuca,15.8,-84.2833,76.37,83,85,6.08,overcast clouds,HN,2021-12-11 04:49:18
84,ushtobe,45.2514,77.9838,34.16,32,0,6.62,clear sky,KZ,2021-12-11 04:49:18
85,tall kayf,37.0833,41.0667,46.74,62,3,4.18,clear sky,TR,2021-12-11 04:49:18
86,roebourne,-20.7833,117.1333,101.59,30,9,13.22,clear sky,AU,2021-12-11 04:49:19
87,banda aceh,5.5577,95.3222,84.96,70,86,14.09,light rain,ID,2021-12-11 04:45:20
88,namibe,-15.1961,12.1522,70.41,75,19,4.34,few clouds,AO,2021-12-11 04:49:19
89,codrington,-38.2667,141.9667,64.58,56,0,13.89,clear sky,AU,2021-12-11 04:49:20
90,tuatapere,-46.1333,167.6833,57.81,59,98,10.47,overcast clouds,NZ,2021-12-11 04:49:20
91,foz,43.5692,-7.2544,56.93,89,100,7.49,overcast clouds,ES,2021-12-11 04:50:20
92,bandarbeyla,9.4942,50.8122,78.06,73,8,15.01,clear sky,SO,2021-12-11 04:50:21
93,ardmore,34.1743,-97.1436,73.2,44,40,11.99,scattered clouds,US,2021-12-11 04:50:21
94,griffith,41.5284,-87.4237,60.1,93,90,3.0,overcast clouds,US,2021-12-11 04:50:21
95,necochea,-38.5473,-58.7368,61.03,89,100,10.11,overcast clouds,AR,2021-12-11 04:50:22
96,florianopolis,-27.6146,-48.5012,65.43,77,75,2.3,broken clouds,BR,2021-12-11 04:50:22
97,cape town,-33.9258,18.4232,62.1,88,20,1.01,few clouds,ZA,2021-12-11 04:50:01
98,butaritari,3.0707,172.7902,82.6,77,22,14.07,light rain,KI,2021-12-11 04:50:23
99,launceston,-41.45,147.1667,68.14,48,75,8.99,broken clouds,AU,2021-12-11 04:50:23
100,aljezur,37.3191,-8.8033,56.17,93,58,11.63,broken clouds,PT,2021-12-11 04:50:23
101,araouane,18.9048,-3.5265,65.21,13,100,10.67,overcast clouds,ML,2021-12-11 04:50:24
102,nanortalik,60.1432,-45.2371,27.19,77,100,10.98,overcast clouds,GL,2021-12-11 04:50:24
103,asau,46.4333,26.4,39.76,85,83,4.74,broken clouds,RO,2021-12-11 04:50:24
104,escanaba,45.7453,-87.0646,32.43,99,90,11.5,snow,US,2021-12-11 04:50:25
105,bonthe,7.5264,-12.505,77.36,86,31,3.29,light rain,SL,2021-12-11 04:50:25
106,zachary,30.6485,-91.1565,75.72,86,75,11.5,broken clouds,US,2021-12-11 04:50:25
107,namatanai,-3.6667,152.4333,84.78,73,83,12.71,light rain,PG,2021-12-11 04:50:26
108,bredasdorp,-34.5322,20.0403,66.27,78,62,9.17,broken clouds,ZA,2021-12-11 04:50:26
109,lorengau,-2.0226,147.2712,82.67,80,100,15.05,moderate rain,PG,2021-12-11 04:50:26
110,san juan,-31.5375,-68.5364,72.91,57,33,5.48,scattered clouds,AR,2021-12-11 04:50:27
111,barrow,71.2906,-156.7887,-7.58,84,40,0.0,scattered clouds,US,2021-12-11 04:50:27
112,luderitz,-26.6481,15.1594,61.95,78,0,8.46,clear sky,NA,2021-12-11 04:50:28
113,aberdeen,57.1437,-2.0981,32.83,93,20,2.3,few clouds,GB,2021-12-11 04:50:28
114,espirito santo do pinhal,-22.1158,-46.6828,61.09,55,63,5.19,broken clouds,BR,2021-12-11 04:50:28
115,brigantine,39.4101,-74.3646,49.03,93,90,0.0,mist,US,2021-12-11 04:50:29
116,saskylakh,71.9167,114.0833,-19.53,98,100,9.08,overcast clouds,RU,2021-12-11 04:50:29
117,castro,-24.7911,-50.0119,56.97,71,54,3.13,broken clouds,BR,2021-12-11 04:50:29
118,izazi,-7.2,35.7333,77.7,54,45,3.02,scattered clouds,TZ,2021-12-11 04:50:30
119,crestview,30.7621,-86.5705,73.76,81,90,7.0,overcast clouds,US,2021-12-11 04:48:56
120,taft,31.7471,54.2088,40.95,49,20,2.3,few clouds,IR,2021-12-11 04:50:30
121,faanui,-16.4833,-151.75,80.37,76,24,11.74,light rain,PF,2021-12-11 04:50:31
122,bengkulu,-3.8004,102.2655,81.55,74,100,4.27,overcast clouds,ID,2021-12-11 04:49:16
123,beaupre,47.0443,-70.8953,26.98,93,100,2.3,overcast clouds,CA,2021-12-11 04:50:31
124,suluq,31.6682,20.2521,54.95,70,1,9.69,clear sky,LY,2021-12-11 04:50:31
125,arlit,18.7369,7.3853,63.46,14,100,6.62,overcast clouds,NE,2021-12-11 04:50:32
126,longyearbyen,78.2186,15.6401,27.21,93,77,11.56,light snow,SJ,2021-12-11 04:50:32
127,liverpool,53.4106,-2.9779,43.83,90,79,3.44,broken clouds,GB,2021-12-11 04:50:33
128,okha,53.5739,142.9478,26.98,97,100,2.3,light snow,RU,2021-12-11 04:50:33
129,salalah,17.0151,54.0924,77.72,49,0,12.3,clear sky,OM,2021-12-11 04:50:33
130,rupert,42.6191,-113.6772,28.35,64,90,6.91,overcast clouds,US,2021-12-11 04:50:34
131,tura,25.5198,90.2201,74.1,35,0,4.21,clear sky,IN,2021-12-11 04:50:34
132,nome,64.5011,-165.4064,-5.73,77,20,20.71,few clouds,US,2021-12-11 04:50:34
133,lazaro cardenas,17.9583,-102.2,75.13,86,9,3.6,clear sky,MX,2021-12-11 04:49:36
134,geraldton,-28.7667,114.6,76.12,50,40,18.41,scattered clouds,AU,2021-12-11 04:50:35
135,avarua,-21.2078,-159.775,78.85,78,20,2.3,light rain,CK,2021-12-11 04:50:35
136,chatham,51.3789,0.5279,39.07,89,9,1.99,clear sky,GB,2021-12-11 04:45:55
137,khandagayty,50.7333,92.05,6.69,88,28,0.47,scattered clouds,RU,2021-12-11 04:50:36
138,georgetown,5.4112,100.3354,87.73,62,20,10.0,few clouds,MY,2021-12-11 04:50:24
139,blagoyevo,63.3667,47.9167,1.89,97,61,4.68,broken clouds,RU,2021-12-11 04:51:36
140,krasnoselkup,65.7,82.4667,6.73,95,100,15.35,light snow,RU,2021-12-11 04:51:37
141,salinas,36.6777,-121.6555,49.39,78,1,3.44,clear sky,US,2021-12-11 04:51:37
142,buin,-33.7333,-70.75,65.73,87,0,2.95,clear sky,CL,2021-12-11 04:51:38
143,dinklage,52.65,8.1167,33.49,92,15,1.01,few clouds,DE,2021-12-11 04:51:38
144,hervey bay,-25.2986,152.8535,89.04,50,28,13.94,scattered clouds,AU,2021-12-11 04:51:39
145,birjand,32.8663,59.2211,34.27,32,0,4.61,clear sky,IR,2021-12-11 04:51:39
146,arman,59.7,150.1667,-0.02,92,28,7.09,scattered clouds,RU,2021-12-11 04:51:39
147,fortuna,40.5982,-124.1573,43.93,76,1,1.99,clear sky,US,2021-12-11 04:51:40
148,oussouye,12.485,-16.5469,71.89,79,89,6.2,overcast clouds,SN,2021-12-11 04:51:40
149,kambam,5.2505,96.8629,82.27,76,81,8.97,broken clouds,ID,2021-12-11 04:51:40
150,kodiak,57.79,-152.4072,26.11,50,75,25.32,broken clouds,US,2021-12-11 04:51:41
151,aykhal,66.0,111.5,-31.59,100,99,6.29,overcast clouds,RU,2021-12-11 04:51:41
152,port-cartier,50.0334,-66.8654,20.75,94,95,5.91,overcast clouds,CA,2021-12-11 04:51:42
153,saraland,30.8207,-88.0706,74.41,92,68,8.7,broken clouds,US,2021-12-11 04:51:42
154,mayo,38.8876,-76.5119,50.41,89,90,1.99,overcast clouds,US,2021-12-11 04:51:42
155,beringovskiy,63.05,179.3167,-17.63,94,63,5.95,broken clouds,RU,2021-12-11 04:51:43
156,hami,42.8,93.45,27.0,45,0,5.66,clear sky,CN,2021-12-11 04:51:43
157,hasaki,35.7333,140.8333,59.4,41,0,5.21,clear sky,JP,2021-12-11 04:51:43
158,yagodnoye,62.55,149.6667,-33.07,94,42,3.11,scattered clouds,RU,2021-12-11 04:51:44
159,tessalit,20.1986,1.0114,64.69,11,100,8.19,overcast clouds,ML,2021-12-11 04:51:45
160,voh,-20.9667,164.7,86.34,62,92,4.14,light rain,NC,2021-12-11 04:51:45
161,sao filipe,14.8961,-24.4956,73.42,71,91,10.71,overcast clouds,CV,2021-12-11 04:51:45
162,kahului,20.8947,-156.47,75.22,75,1,13.8,clear sky,US,2021-12-11 04:51:46
163,karla,59.3723,24.9275,30.16,88,90,11.5,light snow,EE,2021-12-11 04:51:46
164,san quintin,30.4833,-115.95,56.5,70,37,5.21,scattered clouds,MX,2021-12-11 04:51:46
165,vostok,46.4856,135.8833,25.81,87,98,5.28,overcast clouds,RU,2021-12-11 04:51:47
166,yellowknife,62.456,-114.3525,-9.58,87,75,11.5,light snow,CA,2021-12-11 04:51:47
167,hammerfest,70.6634,23.6821,32.45,80,90,11.5,overcast clouds,NO,2021-12-11 04:51:48
168,paamiut,61.994,-49.6678,16.3,86,100,6.2,overcast clouds,GL,2021-12-11 04:51:48
169,kattivakkam,13.2167,80.3167,86.07,80,9,15.35,clear sky,IN,2021-12-11 04:51:48
170,emerald,-23.5333,148.1667,89.74,33,0,8.05,clear sky,AU,2021-12-11 04:51:49
171,victoria,22.2855,114.1577,78.76,68,30,1.01,scattered clouds,HK,2021-12-11 04:49:28
172,sao jose da coroa grande,-8.8978,-35.1478,78.33,80,26,10.89,scattered clouds,BR,2021-12-11 04:51:49
173,ternate,0.8,127.4,84.65,74,96,8.84,overcast clouds,ID,2021-12-11 04:51:50
174,canterbury,51.279,1.0799,39.09,92,4,1.01,clear sky,GB,2021-12-11 04:51:50
175,bambous virieux,-20.3428,57.7575,82.65,65,40,13.8,scattered clouds,MU,2021-12-11 04:51:51
176,qujing,25.4833,103.7833,57.33,75,99,10.36,overcast clouds,CN,2021-12-11 04:51:51
177,rindal,63.0565,9.2124,20.44,82,93,6.08,overcast clouds,NO,2021-12-11 04:51:51
178,carutapera,-1.195,-46.02,77.52,89,77,6.04,broken clouds,BR,2021-12-11 04:51:52
179,chapais,49.7834,-74.8492,15.58,100,93,2.35,overcast clouds,CA,2021-12-11 04:51:52
180,palora,-1.7,-77.9333,65.64,98,47,2.57,scattered clouds,EC,2021-12-11 04:51:53
181,kabanjahe,3.1001,98.4908,72.36,62,92,3.69,overcast clouds,ID,2021-12-11 04:47:04
182,ponta do sol,32.6667,-17.1,65.03,66,30,8.28,scattered clouds,PT,2021-12-11 04:51:53
183,vestmannaeyjar,63.4427,-20.2734,40.19,95,100,50.62,moderate rain,IS,2021-12-11 04:51:53
184,puerto ayora,-0.7393,-90.3518,68.47,93,74,9.78,broken clouds,EC,2021-12-11 04:51:54
185,chifeng,42.2683,118.9636,36.43,24,37,17.05,scattered clouds,CN,2021-12-11 04:52:54
186,samarai,-10.6167,150.6667,85.68,72,88,20.42,light rain,PG,2021-12-11 04:52:55
187,yumen,40.2833,97.2,28.04,48,4,14.72,clear sky,CN,2021-12-11 04:52:55
188,general roca,-39.0333,-67.5833,77.4,49,46,17.81,scattered clouds,AR,2021-12-11 04:52:55
189,lagoa,39.05,-27.9833,63.07,78,0,10.96,clear sky,PT,2021-12-11 04:52:56
190,cherskiy,68.75,161.3,-35.39,99,97,3.8,overcast clouds,RU,2021-12-11 04:52:56
191,tommot,58.9564,126.2925,0.99,90,100,0.43,overcast clouds,RU,2021-12-11 04:52:57
192,san cristobal,7.7669,-72.225,66.38,95,100,2.51,overcast clouds,VE,2021-12-11 04:52:57
193,kijang,35.2442,129.2139,56.93,49,92,3.36,overcast clouds,KR,2021-12-11 04:52:57
194,morant bay,17.8815,-76.4093,80.22,80,17,11.88,few clouds,JM,2021-12-11 04:52:58
195,havelock,34.8791,-76.9013,67.95,91,90,1.99,overcast clouds,US,2021-12-11 04:52:58
196,saint-philippe,-21.3585,55.7679,83.75,72,53,6.6,broken clouds,RE,2021-12-11 04:52:58
197,berlevag,70.8578,29.0864,21.88,87,96,12.84,overcast clouds,NO,2021-12-11 04:52:59
198,norman wells,65.282,-126.8329,-5.76,77,90,5.75,light snow,CA,2021-12-11 04:52:59
199,mendi,-6.1761,143.6513,62.83,92,96,2.93,overcast clouds,PG,2021-12-11 04:53:00
200,kruisfontein,-34.0033,24.7314,68.88,84,73,11.14,broken clouds,ZA,2021-12-11 04:53:00
201,comodoro rivadavia,-45.8667,-67.5,57.06,88,75,8.05,broken clouds,AR,2021-12-11 04:50:57
202,sola,-13.8833,167.55,83.5,73,78,8.39,broken clouds,VU,2021-12-11 04:53:00
203,sasykoli,47.5515,46.9968,29.59,88,38,8.14,scattered clouds,RU,2021-12-11 04:53:01
204,sawtell,-30.3833,153.1,77.32,68,90,12.66,overcast clouds,AU,2021-12-11 04:53:01
205,kappeln,54.6612,9.9313,35.98,83,93,9.06,overcast clouds,DE,2021-12-11 04:53:02
206,svetlogorsk,52.6333,29.7333,41.54,94,100,17.96,overcast clouds,BY,2021-12-11 04:53:02
207,kortkeros,61.8106,51.5806,-3.82,99,74,5.06,broken clouds,RU,2021-12-11 04:53:02
208,ilulissat,69.2167,-51.1,17.2,75,100,7.05,overcast clouds,GL,2021-12-11 04:53:03
209,monrovia,6.3005,-10.7969,79.02,80,52,5.95,light rain,LR,2021-12-11 04:53:03
210,yamada,39.4667,141.95,52.36,54,18,1.14,few clouds,JP,2021-12-11 04:53:04
211,provideniya,64.3833,-173.3,-7.35,87,66,9.84,broken clouds,RU,2021-12-11 04:53:04
212,rawson,-43.3002,-65.1023,66.2,71,65,20.76,broken clouds,AR,2021-12-11 04:53:04
213,yulara,-25.2406,130.9889,94.84,14,0,6.91,clear sky,AU,2021-12-11 04:53:05
214,adrar,20.5022,-10.0711,64.51,13,99,10.49,overcast clouds,MR,2021-12-11 04:53:05
215,xucheng,20.35,110.1288,70.5,73,69,17.69,broken clouds,CN,2021-12-11 04:53:05
216,fairbanks,64.8378,-147.7164,9.3,84,90,4.61,mist,US,2021-12-11 04:49:25
217,plettenberg bay,-34.0527,23.3716,68.14,84,45,7.02,scattered clouds,ZA,2021-12-11 04:53:06
218,kaitangata,-46.2817,169.8464,55.92,58,100,11.65,overcast clouds,NZ,2021-12-11 04:53:06
219,aswan,24.0934,32.907,66.24,57,100,8.46,overcast clouds,EG,2021-12-11 04:53:07
220,ambon,-3.6954,128.1814,93.34,55,40,8.05,scattered clouds,ID,2021-12-11 04:53:07
221,armizonskoye,55.9461,67.6736,12.4,89,100,8.23,overcast clouds,RU,2021-12-11 04:53:07
222,dowa,-13.654,33.9375,70.07,51,30,9.37,scattered clouds,MW,2021-12-11 04:53:08
223,lahij,13.1667,44.5833,72.48,39,0,5.35,clear sky,YE,2021-12-11 04:53:08
224,zhanaozen,43.3,52.8,37.49,89,61,8.68,broken clouds,KZ,2021-12-11 04:53:08
225,marshall,34.3834,-86.3333,72.95,79,90,5.01,overcast clouds,US,2021-12-11 04:50:13
226,kaeo,-35.1,173.7833,73.33,86,89,8.61,overcast clouds,NZ,2021-12-11 04:53:09
227,foam lake,51.65,-103.5343,17.62,83,54,10.71,broken clouds,CA,2021-12-11 04:53:09
228,kangaatsiaq,68.3065,-53.4641,19.63,60,100,8.34,overcast clouds,GL,2021-12-11 04:53:10
229,hamilton,39.1834,-84.5333,62.89,96,90,4.0,overcast clouds,US,2021-12-11 04:50:36
230,shimoda,34.6667,138.95,59.36,66,44,2.66,scattered clouds,JP,2021-12-11 04:54:10
231,bonavista,48.6499,-53.1147,20.12,74,84,12.93,broken clouds,CA,2021-12-11 04:50:58
232,bangassou,4.7413,22.8184,68.92,57,81,2.17,broken clouds,CF,2021-12-11 04:54:11
233,ovsyanka,55.9575,92.5519,18.57,84,100,7.63,overcast clouds,RU,2021-12-11 04:54:11
234,tunapuna,10.6333,-61.3833,77.11,90,40,0.0,scattered clouds,TT,2021-12-11 04:54:11
235,souillac,-20.5167,57.5167,82.78,65,40,13.8,scattered clouds,MU,2021-12-11 04:54:12
236,yar-sale,66.8333,70.8333,5.94,93,100,19.08,overcast clouds,RU,2021-12-11 04:54:12
237,mar del plata,-38.0023,-57.5575,65.88,90,0,23.0,clear sky,AR,2021-12-11 04:54:13
238,haukipudas,65.1765,25.3523,26.65,94,100,10.6,light snow,FI,2021-12-11 04:54:13
239,sarangani,5.4033,125.4636,83.61,76,90,14.43,overcast clouds,PH,2021-12-11 04:54:13
240,mega,4.05,38.3,61.74,24,76,15.39,broken clouds,ET,2021-12-11 04:54:14
241,klaksvik,62.2266,-6.589,43.72,81,45,15.43,scattered clouds,FO,2021-12-11 04:54:14
242,mezen,65.8522,44.24,14.94,83,100,9.6,overcast clouds,RU,2021-12-11 04:54:15
243,vanavara,60.34,102.2797,-13.09,97,84,3.13,broken clouds,RU,2021-12-11 04:54:15
244,evensk,61.95,159.2333,-20.56,79,8,6.04,clear sky,RU,2021-12-11 04:54:15
245,batemans bay,-35.7167,150.1833,69.19,72,70,15.1,broken clouds,AU,2021-12-11 04:54:16
246,kiunga,-6.1219,141.2906,83.84,87,88,3.36,overcast clouds,PG,2021-12-11 04:54:16
247,luis correia,-2.8792,-41.6669,79.92,81,11,13.09,few clouds,BR,2021-12-11 04:54:17
248,vao,-22.6667,167.4833,78.67,85,73,13.09,broken clouds,NC,2021-12-11 04:54:17
249,sioux lookout,50.1001,-91.917,16.18,92,75,3.44,broken clouds,CA,2021-12-11 04:53:01
250,seoul,37.5683,126.9778,50.41,76,100,4.61,mist,KR,2021-12-11 04:50:42
251,sinop,41.7711,34.8709,46.67,65,54,9.89,broken clouds,TR,2021-12-11 04:54:18
252,nouadhibou,20.931,-17.0347,60.78,59,40,13.8,scattered clouds,MR,2021-12-11 04:54:18
253,strezhevoy,60.7333,77.5889,13.98,87,99,15.26,overcast clouds,RU,2021-12-11 04:54:19
254,broken hill,-31.95,141.4333,78.51,21,0,10.36,clear sky,AU,2021-12-11 04:54:19
255,bria,6.5423,21.9863,68.16,40,47,2.89,scattered clouds,CF,2021-12-11 04:54:19
256,kurilsk,45.2333,147.8833,37.36,69,100,2.37,overcast clouds,RU,2021-12-11 04:54:20
257,zonguldak,41.25,31.8333,44.58,81,97,5.73,overcast clouds,TR,2021-12-11 04:54:20
258,aktau,43.65,51.2,39.78,79,23,11.61,few clouds,KZ,2021-12-11 04:54:20
259,urumqi,43.801,87.6005,7.75,85,75,6.71,light snow,CN,2021-12-11 04:54:21
260,porto de moz,-1.7483,-52.2383,75.47,91,68,3.87,broken clouds,BR,2021-12-11 04:54:21
261,tiksi,71.6872,128.8694,-5.51,92,100,7.49,overcast clouds,RU,2021-12-11 04:54:21
262,maroantsetra,-15.4333,49.7333,77.04,71,74,1.57,broken clouds,MG,2021-12-11 04:54:22
263,xuanzhou,30.9525,118.7553,61.68,51,8,4.97,clear sky,CN,2021-12-11 04:54:22
264,wukari,7.85,9.7833,69.04,29,61,2.28,broken clouds,NG,2021-12-11 04:54:23
265,ca mau,9.1769,105.15,87.51,52,88,3.15,overcast clouds,VN,2021-12-11 04:54:23
266,calvinia,-31.4707,19.776,59.32,54,0,4.18,clear sky,ZA,2021-12-11 04:54:23
267,bereda,43.2686,-7.5406,52.41,100,100,2.77,overcast clouds,ES,2021-12-11 04:54:24
268,la plata,-34.9215,-57.9545,72.0,77,71,5.61,broken clouds,AR,2021-12-11 04:49:45
269,verkhoyansk,67.5447,133.385,-30.71,95,99,1.34,overcast clouds,RU,2021-12-11 04:54:24
270,chimbote,-9.0853,-78.5783,66.96,86,77,6.69,broken clouds,PE,2021-12-11 04:54:25
271,itoman,26.1247,127.6694,77.02,48,20,11.5,few clouds,JP,2021-12-11 04:54:25
272,esperance,-33.8667,121.9,73.24,62,29,15.82,scattered clouds,AU,2021-12-11 04:54:25
273,ponoka,52.6768,-113.5815,26.58,69,37,9.42,scattered clouds,CA,2021-12-11 04:54:26
274,blagoveshchenka,52.8333,79.8667,14.85,75,98,12.08,overcast clouds,RU,2021-12-11 04:54:26
275,pevek,69.7008,170.3133,-31.22,97,98,4.54,overcast clouds,RU,2021-12-11 04:54:26
276,erzin,36.9559,36.2,50.52,71,61,8.25,broken clouds,TR,2021-12-11 04:55:27
277,kizema,61.113,44.8302,-8.25,100,80,2.62,broken clouds,RU,2021-12-11 04:55:27
278,fort nelson,58.8053,-122.7002,0.99,85,75,5.75,broken clouds,CA,2021-12-11 04:50:36
279,leavenworth,39.2333,-95.0336,38.05,77,11,8.99,few clouds,US,2021-12-11 04:55:28
280,westport,41.1415,-73.3579,46.18,85,39,3.0,scattered clouds,US,2021-12-11 04:55:28
281,salekhard,66.53,66.6019,6.62,86,100,6.38,overcast clouds,RU,2021-12-11 04:55:28
282,talara,-4.5772,-81.2719,68.16,87,100,13.4,light rain,PE,2021-12-11 04:55:29
283,ossora,59.2353,163.0719,4.19,95,100,5.79,overcast clouds,RU,2021-12-11 04:55:29
284,dahra,36.2546,0.8519,51.19,90,52,11.12,broken clouds,DZ,2021-12-11 04:55:30
285,wells,51.2079,-2.649,44.89,90,78,3.67,broken clouds,GB,2021-12-11 04:55:30
286,tabuk,17.4189,121.4443,80.92,65,63,3.78,broken clouds,PH,2021-12-11 04:55:30
287,iqaluit,63.7506,-68.5145,1.13,71,75,9.22,light snow,CA,2021-12-11 04:55:31
288,haines junction,60.7522,-137.5108,1.35,85,99,1.14,overcast clouds,CA,2021-12-11 04:55:31
289,rudbar,30.15,62.6,59.85,23,100,4.5,overcast clouds,AF,2021-12-11 04:55:31
290,acari,-15.4311,-74.6158,70.09,80,61,1.97,light rain,PE,2021-12-11 04:55:32
291,aklavik,68.2191,-135.0107,-12.28,90,100,19.62,overcast clouds,CA,2021-12-11 04:55:32
292,pacific grove,36.6177,-121.9166,48.97,79,42,1.99,scattered clouds,US,2021-12-11 04:54:23
293,mount gambier,-37.8333,140.7667,75.11,38,0,12.66,clear sky,AU,2021-12-11 04:55:33
294,port-gentil,-0.7193,8.7815,80.33,81,99,6.62,light rain,GA,2021-12-11 04:55:33
295,buraydah,26.326,43.975,45.05,42,88,4.88,overcast clouds,SA,2021-12-11 04:55:33
296,avera,33.194,-82.5271,62.11,95,100,8.88,overcast clouds,US,2021-12-11 04:55:34
297,pangnirtung,66.1451,-65.7125,-12.41,88,46,4.41,scattered clouds,CA,2021-12-11 04:55:34
298,gamba,-2.65,10.0,76.64,91,100,4.29,overcast clouds,GA,2021-12-11 04:55:34
299,burnie,-41.0667,145.9167,64.92,54,44,8.32,scattered clouds,AU,2021-12-11 04:55:35
300,torbay,47.6666,-52.7314,20.75,82,1,6.91,clear sky,CA,2021-12-11 04:55:35
301,nushki,29.5542,66.0215,60.44,9,24,1.61,few clouds,PK,2021-12-11 04:55:36
302,baruun-urt,46.6806,113.2792,13.53,57,99,8.12,overcast clouds,MN,2021-12-11 04:55:36
303,orneta,54.1148,20.1333,26.02,99,61,4.68,broken clouds,PL,2021-12-11 04:55:36
304,gizo,-8.103,156.8419,85.06,74,100,14.58,overcast clouds,SB,2021-12-11 04:55:37
305,tigre,-34.426,-58.5796,72.23,83,0,1.14,clear sky,AR,2021-12-11 04:55:37
306,urucara,-2.5364,-57.76,74.75,96,49,2.24,scattered clouds,BR,2021-12-11 04:55:38
307,mindelo,16.8901,-24.9804,71.15,64,40,24.16,scattered clouds,CV,2021-12-11 04:55:38
308,pisco,-13.7,-76.2167,66.25,82,75,12.66,broken clouds,PE,2021-12-11 04:55:38
309,kailua,21.4022,-157.7394,77.02,73,75,9.22,broken clouds,US,2021-12-11 04:54:26
310,vangaindrano,-23.35,47.6,78.17,80,51,7.72,light rain,MG,2021-12-11 04:55:39
311,telemaco borba,-24.3239,-50.6156,59.63,71,53,1.92,broken clouds,BR,2021-12-11 04:55:40
312,uddevalla,58.3478,11.9424,34.16,97,100,2.73,overcast clouds,SE,2021-12-11 04:55:40
313,acopiara,-6.0953,-39.4525,77.0,73,90,7.16,overcast clouds,BR,2021-12-11 04:53:10
314,maumere,-8.6199,122.2111,84.6,75,45,4.76,scattered clouds,ID,2021-12-11 04:55:40
315,piacabucu,-10.4056,-36.4344,78.04,83,12,11.18,few clouds,BR,2021-12-11 04:53:15
316,platanos,37.6667,21.6167,58.08,78,100,18.34,overcast clouds,GR,2021-12-11 04:55:41
317,nokia,61.4667,23.5,26.85,94,90,1.01,overcast clouds,FI,2021-12-11 04:55:41
318,vereeniging,-26.6731,27.9261,70.84,67,98,8.12,overcast clouds,ZA,2021-12-11 04:55:42
319,lompoc,34.6391,-120.4579,52.11,83,1,4.61,clear sky,US,2021-12-11 04:52:03
320,nuevo mexico,20.75,-103.4333,59.18,43,36,1.92,scattered clouds,MX,2021-12-11 04:55:42
321,paita,-5.0892,-81.1144,66.51,90,100,10.11,moderate rain,PE,2021-12-11 04:55:42
322,falmouth,50.1544,-5.0711,43.86,84,84,8.43,broken clouds,GB,2021-12-11 04:56:43
323,carlsbad,33.1581,-117.3506,56.46,88,2,1.99,clear sky,US,2021-12-11 04:56:43
324,alice springs,-23.7,133.8833,89.15,12,0,8.05,clear sky,AU,2021-12-11 04:56:44
325,morros,-9.4467,-46.3003,72.09,93,100,3.56,light rain,BR,2021-12-11 04:56:44
326,carbonear,47.7332,-53.2148,21.61,70,84,8.68,broken clouds,CA,2021-12-11 04:56:44
327,touros,-5.1989,-35.4608,81.5,77,46,10.87,scattered clouds,BR,2021-12-11 04:56:45
328,sembakung,3.8167,117.25,84.13,60,100,1.5,overcast clouds,ID,2021-12-11 04:56:45
329,betsiamites,48.9413,-68.646,26.49,90,100,7.47,overcast clouds,CA,2021-12-11 04:56:45
330,ciudad guayana,8.3533,-62.6528,72.07,97,99,3.89,overcast clouds,VE,2021-12-11 04:56:46
331,wum,6.3833,10.0667,64.47,44,65,3.2,broken clouds,CM,2021-12-11 04:56:46
332,shemgang,27.2169,90.6579,53.64,61,31,5.12,scattered clouds,BT,2021-12-11 04:56:47
333,chuy,-33.6971,-53.4616,59.5,86,81,5.19,broken clouds,UY,2021-12-11 04:56:47
334,taoudenni,22.6783,-3.9836,58.69,34,32,10.78,scattered clouds,ML,2021-12-11 04:56:47
335,denia,38.8408,0.1057,61.54,50,8,10.0,clear sky,ES,2021-12-11 04:56:48
336,burias,11.4463,122.5497,80.94,87,100,7.56,overcast clouds,PH,2021-12-11 04:56:48
337,kavaratti,10.5669,72.642,82.33,70,42,6.26,scattered clouds,IN,2021-12-11 04:56:00
338,ngunguru,-35.6167,174.5,73.17,83,63,12.71,broken clouds,NZ,2021-12-11 04:56:48
339,ahipara,-35.1667,173.1667,73.4,76,80,9.86,broken clouds,NZ,2021-12-11 04:56:49
340,isangel,-19.55,169.2667,87.91,70,75,6.91,broken clouds,VU,2021-12-11 04:56:49
341,constitucion,-35.3333,-72.4167,57.31,92,99,3.42,overcast clouds,CL,2021-12-11 04:56:50
342,siwana,25.6333,72.4167,68.97,24,6,6.91,clear sky,IN,2021-12-11 04:56:50
343,savalou,7.9281,1.9756,73.76,50,36,1.7,scattered clouds,BJ,2021-12-11 04:56:51
344,wichita falls,33.9137,-98.4934,62.17,39,40,20.71,scattered clouds,US,2021-12-11 04:56:51
345,kingaroy,-26.5333,151.8333,82.44,26,0,4.61,clear sky,AU,2021-12-11 04:56:51
346,abu dhabi,24.4667,54.3667,69.96,78,25,1.99,scattered clouds,AE,2021-12-11 04:56:45
347,qasigiannguit,68.8193,-51.1922,13.86,77,100,4.43,overcast clouds,GL,2021-12-11 04:56:52
348,koslan,63.4564,48.8989,5.59,95,80,6.44,broken clouds,RU,2021-12-11 04:56:52
349,padang,-0.9492,100.3543,86.05,68,84,4.23,broken clouds,ID,2021-12-11 04:53:12
350,san carlos de bariloche,-41.1456,-71.3082,62.35,55,0,16.11,clear sky,AR,2021-12-11 04:53:42
351,formosa do rio preto,-11.0483,-45.1931,69.73,96,79,1.41,broken clouds,BR,2021-12-11 04:56:53
352,lysyye gory,51.5506,44.8414,24.42,73,10,8.41,clear sky,RU,2021-12-11 04:56:53
353,ati,13.2154,18.3353,67.96,13,48,9.31,scattered clouds,TD,2021-12-11 04:56:54
354,cheremkhovo,53.1561,103.0675,8.31,90,100,5.28,overcast clouds,RU,2021-12-11 04:56:54
355,jalu,29.0331,21.5482,49.6,67,24,2.42,few clouds,LY,2021-12-11 04:56:55
356,karratha,-20.7377,116.8463,101.68,29,20,14.2,few clouds,AU,2021-12-11 04:56:55
357,gat,31.61,34.7642,60.91,38,32,1.01,scattered clouds,IL,2021-12-11 04:56:55
358,hithadhoo,-0.6,73.0833,80.44,77,51,6.44,broken clouds,MV,2021-12-11 04:56:56
359,college,64.8569,-147.8028,9.28,84,90,4.61,light snow,US,2021-12-11 04:56:56
360,thompson,55.7435,-97.8558,8.76,72,40,13.8,scattered clouds,CA,2021-12-11 04:56:22
361,solnechnyy,50.7214,136.6319,22.48,83,98,4.92,overcast clouds,RU,2021-12-11 04:57:57
362,simao,22.7886,100.9748,71.78,55,6,4.36,clear sky,CN,2021-12-11 04:57:57
363,acapulco,16.8634,-99.8901,77.59,85,59,4.54,broken clouds,MX,2021-12-11 04:57:58
364,poronaysk,49.2167,143.1167,30.92,95,100,5.46,overcast clouds,RU,2021-12-11 04:57:58
365,plouzane,48.3833,-4.6167,48.25,90,90,6.91,overcast clouds,FR,2021-12-11 04:57:59
366,mitsamiouli,-11.3847,43.2844,80.89,74,20,8.05,few clouds,KM,2021-12-11 04:57:59
367,civitavecchia,42.0933,11.7967,44.49,96,100,19.01,moderate rain,IT,2021-12-11 04:57:59
368,kosh-agach,50.0,88.6667,3.87,45,0,0.63,clear sky,RU,2021-12-11 04:58:00
369,sainte-anne-des-monts,49.124,-66.4924,24.67,74,99,8.05,overcast clouds,CA,2021-12-11 04:53:21
370,rochdale,53.6177,-2.1552,41.59,94,62,3.36,broken clouds,GB,2021-12-11 04:58:00
371,adelaide,-34.9333,138.6,87.55,35,0,5.01,clear sky,AU,2021-12-11 04:58:01
372,stepnyak,52.8339,70.7803,15.03,75,100,2.24,overcast clouds,KZ,2021-12-11 04:58:01
373,honningsvag,70.9821,25.9704,30.0,81,97,20.87,overcast clouds,NO,2021-12-11 04:58:02
374,darnah,32.767,22.6367,56.1,67,0,13.89,clear sky,LY,2021-12-11 04:58:02
375,coquimbo,-29.9533,-71.3436,62.33,67,90,3.44,overcast clouds,CL,2021-12-11 04:53:16
376,kaputa,-8.4689,29.6619,72.32,75,70,2.62,broken clouds,ZM,2021-12-11 04:58:03
377,adre,13.4667,22.2,62.8,31,1,10.83,clear sky,TD,2021-12-11 04:58:03
378,bratsk,56.1325,101.6142,1.89,88,100,10.27,overcast clouds,RU,2021-12-11 04:58:03
379,balabac,7.9868,117.0645,83.12,77,100,14.36,overcast clouds,PH,2021-12-11 04:58:04
380,coos bay,43.3665,-124.2179,48.92,99,100,12.12,overcast clouds,US,2021-12-11 04:58:04
381,shanhetun,44.7,127.2,29.17,84,100,5.06,overcast clouds,CN,2021-12-11 04:58:04
382,rongcheng,30.634,117.8517,60.94,55,21,5.73,few clouds,CN,2021-12-11 04:58:05
383,harper,4.375,-7.7169,78.89,83,7,8.77,clear sky,LR,2021-12-11 04:58:05
384,kargasok,59.0556,80.8572,18.25,85,100,14.54,overcast clouds,RU,2021-12-11 04:58:06
385,hambantota,6.1241,81.1185,86.34,74,20,12.66,few clouds,LK,2021-12-11 04:58:06
386,broome,42.2506,-75.833,40.5,72,90,3.0,overcast clouds,US,2021-12-11 04:58:06
387,kimbe,-5.5502,150.1429,80.96,88,92,3.74,moderate rain,PG,2021-12-11 04:58:07
388,upernavik,72.7868,-56.1549,-3.93,99,41,12.66,scattered clouds,GL,2021-12-11 04:58:07
389,villarrica,-25.75,-56.4333,70.88,49,42,3.09,scattered clouds,PY,2021-12-11 04:58:07
390,sao gabriel da cachoeira,-0.1303,-67.0892,73.31,99,100,2.39,overcast clouds,BR,2021-12-11 04:58:08
391,vaitape,-16.5167,-151.75,80.31,76,24,11.65,light rain,PF,2021-12-11 04:58:08
392,tumaco,1.7986,-78.8156,74.95,93,100,10.71,light rain,CO,2021-12-11 04:58:08
393,olinda,-8.0089,-34.8553,82.13,74,40,9.22,scattered clouds,BR,2021-12-11 04:58:09
394,kuryk,43.2,51.65,44.44,80,33,9.15,scattered clouds,KZ,2021-12-11 04:58:09
395,paramonga,-10.6667,-77.8333,66.67,90,93,7.45,overcast clouds,PE,2021-12-11 04:58:09
396,severo-kurilsk,50.6789,156.125,33.84,89,100,7.0,overcast clouds,RU,2021-12-11 04:58:10
397,ranot,7.7777,100.3213,82.78,68,100,12.06,overcast clouds,TH,2021-12-11 04:58:10
398,hobyo,5.3505,48.5268,78.33,69,65,18.9,broken clouds,SO,2021-12-11 04:58:11
399,port lincoln,-34.7333,135.8667,70.39,54,65,10.25,broken clouds,AU,2021-12-11 04:58:11
400,conakry,9.538,-13.6773,84.27,79,20,0.0,haze,GN,2021-12-11 04:58:11
401,nurota,40.5614,65.6886,41.09,29,95,4.76,overcast clouds,UZ,2021-12-11 04:58:12
402,chulman,56.8479,124.9104,-6.68,96,100,1.97,overcast clouds,RU,2021-12-11 04:58:12
403,jiayuguan,39.8167,98.3,25.83,62,54,0.85,broken clouds,CN,2021-12-11 04:58:12
404,alofi,-19.0595,-169.9187,80.49,74,84,8.05,light rain,NU,2021-12-11 04:58:13
405,halifax,44.6453,-63.5724,41.22,87,100,4.0,overcast clouds,CA,2021-12-11 04:55:27
406,riberalta,-10.9833,-66.1,71.83,99,100,2.82,overcast clouds,BO,2021-12-11 04:58:13
407,merauke,-8.4667,140.3333,83.62,74,97,9.53,light rain,ID,2021-12-11 04:55:05
408,altay,47.8667,88.1167,15.44,66,0,2.98,clear sky,CN,2021-12-11 04:59:14
409,jimo,36.3897,120.4622,47.98,61,100,6.71,haze,CN,2021-12-11 04:59:14
410,pochinki,54.6988,44.8668,10.71,86,6,8.55,clear sky,RU,2021-12-11 04:59:14
411,eureka,40.8021,-124.1637,44.2,74,100,5.93,overcast clouds,US,2021-12-11 04:59:15
412,rosarito,32.3333,-117.0333,54.09,71,2,4.32,clear sky,MX,2021-12-11 04:59:15
413,sitka,57.0531,-135.33,35.49,75,90,6.91,light rain,US,2021-12-11 04:59:15
414,rafsanjan,30.4067,55.9939,51.19,27,72,0.56,broken clouds,IR,2021-12-11 04:58:54
415,hornepayne,49.2138,-84.7705,21.58,97,100,3.2,overcast clouds,CA,2021-12-11 04:59:16
416,komsomolskiy,40.4272,71.7189,42.22,45,64,4.61,broken clouds,UZ,2021-12-11 04:59:16
417,makubetsu,45.3714,141.8211,44.31,87,75,9.22,broken clouds,JP,2021-12-11 04:59:17
418,san jose,37.3394,-121.895,50.5,70,1,0.0,clear sky,US,2021-12-11 04:55:04
419,clyde river,70.4692,-68.5914,-1.97,78,93,13.8,light snow,CA,2021-12-11 04:59:17
420,leshukonskoye,64.8989,45.7622,10.29,90,99,7.25,overcast clouds,RU,2021-12-11 04:59:18
421,abu samrah,35.3029,37.1841,50.16,66,24,7.61,few clouds,SY,2021-12-11 04:59:18
422,dingle,10.9995,122.6711,83.75,76,100,12.82,overcast clouds,PH,2021-12-11 04:59:18
423,aguie,13.506,7.7786,61.9,15,11,9.84,few clouds,NE,2021-12-11 04:59:19
424,road town,18.4167,-64.6167,79.0,73,0,23.89,clear sky,VG,2021-12-11 04:59:19
425,los llanos de aridane,28.6585,-17.9182,60.55,72,20,13.0,few clouds,ES,2021-12-11 04:59:19
426,hovd,48.0056,91.6419,15.33,40,0,1.07,clear sky,MN,2021-12-11 04:59:20
427,jardim,-21.4803,-56.1381,71.55,43,96,2.82,overcast clouds,BR,2021-12-11 04:59:20
428,manokwari,-0.8667,134.0833,84.74,74,45,9.26,scattered clouds,ID,2021-12-11 04:59:21
429,leningradskiy,69.3833,178.4167,-21.77,82,79,15.48,broken clouds,RU,2021-12-11 04:59:21
430,khandyga,62.6667,135.6,-8.07,99,100,2.37,overcast clouds,RU,2021-12-11 04:59:21
431,grand gaube,-20.0064,57.6608,82.8,64,12,8.01,few clouds,MU,2021-12-11 04:59:22
432,ribeira grande,38.5167,-28.7,63.88,82,3,15.41,clear sky,PT,2021-12-11 04:59:22
433,kibre mengist,5.8833,38.9833,57.78,30,14,4.07,few clouds,ET,2021-12-11 04:59:22
434,shingu,33.7333,135.9833,63.59,53,18,3.89,few clouds,JP,2021-12-11 04:59:23
435,ouesso,1.6136,16.0517,70.72,80,100,0.4,overcast clouds,CG,2021-12-11 04:59:23
436,narsaq,60.9167,-46.05,21.97,75,100,4.05,overcast clouds,GL,2021-12-11 04:59:23
437,north vernon,39.0062,-85.6236,64.74,91,100,24.09,overcast clouds,US,2021-12-11 04:58:47
438,natal,-5.795,-35.2094,81.25,83,75,12.66,broken clouds,BR,2021-12-11 04:59:24
439,salamiyah,35.0113,37.0532,50.77,62,17,7.05,few clouds,SY,2021-12-11 04:59:24
440,bathsheba,13.2167,-59.5167,79.41,78,40,14.97,scattered clouds,BB,2021-12-11 04:59:25
441,guanica,17.9716,-66.908,78.06,81,0,1.01,clear sky,PR,2021-12-11 04:59:25
442,ucluelet,48.9329,-125.5528,47.08,92,100,1.99,light rain,CA,2021-12-11 04:59:25
443,boa vista,2.8197,-60.6733,78.78,89,90,4.61,light rain,BR,2021-12-11 04:59:26
444,tekkali,18.6167,84.2333,79.39,69,2,8.81,clear sky,IN,2021-12-11 04:59:26
445,sur,22.5667,59.5289,73.9,50,64,2.68,broken clouds,OM,2021-12-11 04:59:26
446,amapa,1.0,-52.0,72.95,100,95,1.1,overcast clouds,BR,2021-12-11 04:59:27
447,wiwili,13.6268,-85.8254,66.78,94,22,3.0,few clouds,NI,2021-12-11 04:59:27
448,tiznit,29.5833,-9.5,53.42,32,1,1.16,clear sky,MA,2021-12-11 04:59:28
449,bilma,18.6853,12.9164,57.9,15,99,7.07,overcast clouds,NE,2021-12-11 04:59:28
450,zaragoza,41.6561,-0.8773,52.25,81,75,8.99,light intensity drizzle,ES,2021-12-11 04:59:28
451,richards bay,-28.783,32.0377,77.94,82,41,12.71,scattered clouds,ZA,2021-12-11 04:59:29
452,oranjemund,-28.55,16.4333,61.38,91,5,5.17,clear sky,NA,2021-12-11 04:59:29
453,surin,14.8818,103.4936,81.54,50,8,9.71,clear sky,TH,2021-12-11 05:00:29
454,qixia,37.2975,120.8256,48.63,50,91,7.63,overcast clouds,CN,2021-12-11 05:00:31
455,mao,39.8885,4.2658,48.76,71,20,14.97,few clouds,ES,2021-12-11 05:00:32
456,miandoab,36.9694,46.1027,37.67,64,0,1.14,clear sky,IR,2021-12-11 05:00:34
457,vallenar,-28.5708,-70.7581,57.67,73,0,2.26,clear sky,CL,2021-12-11 05:00:35
458,bosobolo,4.1833,19.9,70.47,43,61,2.68,broken clouds,CD,2021-12-11 05:00:36
459,ishigaki,24.3448,124.1572,73.33,58,62,15.55,broken clouds,JP,2021-12-11 05:00:36
460,safranbolu,41.2508,32.6942,42.82,79,70,2.8,broken clouds,TR,2021-12-11 05:00:37
461,byron bay,-28.65,153.6167,78.87,70,58,12.84,broken clouds,AU,2021-12-11 04:57:52
462,naze,28.3667,129.4833,66.81,54,39,2.62,scattered clouds,JP,2021-12-11 05:00:37
463,lukoyanov,55.0277,44.4786,7.74,90,5,9.06,clear sky,RU,2021-12-11 05:00:38
464,akureyri,65.6835,-18.0878,24.44,90,100,4.9,overcast clouds,IS,2021-12-11 05:00:38
465,ketchikan,55.3422,-131.6461,30.99,80,100,5.26,light snow,US,2021-12-11 05:00:38
466,inuvik,68.3499,-133.7218,-8.61,98,100,10.07,overcast clouds,CA,2021-12-11 05:00:39
467,celestun,20.8667,-90.4,77.25,67,11,12.59,few clouds,MX,2021-12-11 05:00:39
468,maragogi,-9.0122,-35.2225,78.17,80,29,10.94,scattered clouds,BR,2021-12-11 05:00:40
469,tebingtinggi,3.3285,99.1625,86.05,78,94,4.23,overcast clouds,ID,2021-12-11 05:00:40
470,camden,39.7835,-74.9663,46.71,88,99,1.99,overcast clouds,US,2021-12-11 04:57:40
471,saiha,22.4833,92.9667,78.62,38,4,3.78,clear sky,IN,2021-12-11 05:00:40
472,ende,-8.8432,121.6623,85.41,77,47,5.53,scattered clouds,ID,2021-12-11 05:00:41
473,msowero,-6.5333,37.2,75.67,76,66,2.73,broken clouds,TZ,2021-12-11 05:00:41
474,buala,-8.145,159.5921,79.88,89,100,7.43,light rain,SB,2021-12-11 05:00:42
475,iralaya,15.0,-83.2333,77.85,84,29,11.05,scattered clouds,HN,2021-12-11 05:00:42
476,ruteng,-8.6136,120.4721,74.07,76,69,2.48,broken clouds,ID,2021-12-11 05:00:42
477,roma,43.2128,-75.4557,40.87,82,1,9.22,clear sky,US,2021-12-11 05:00:43
478,bardsir,29.9227,56.5743,48.45,22,87,0.85,overcast clouds,IR,2021-12-11 05:00:43
479,san miguel chicaj,15.1,-90.4,63.57,96,15,2.13,few clouds,GT,2021-12-11 05:00:43
480,grindavik,63.8424,-22.4338,39.67,87,90,39.12,moderate rain,IS,2021-12-11 05:00:44
481,shestakovo,56.4915,103.96,2.3,85,99,7.9,overcast clouds,RU,2021-12-11 05:00:44
482,zheleznodorozhnyy,55.7503,38.0042,3.72,90,63,7.4,broken clouds,RU,2021-12-11 05:00:45
483,hofn,64.2539,-15.2082,39.42,95,100,14.97,overcast clouds,IS,2021-12-11 05:00:45
484,kyshtovka,56.555,76.6271,16.03,85,100,9.95,overcast clouds,RU,2021-12-11 05:00:45
485,jensen beach,27.2545,-80.2298,76.05,84,1,1.01,clear sky,US,2021-12-11 05:00:46
486,laguna,38.421,-121.4238,47.01,81,1,0.0,clear sky,US,2021-12-11 05:00:46
487,cabo san lucas,22.8909,-109.9124,72.52,74,77,7.67,broken clouds,MX,2021-12-11 05:00:47
488,carnarvon,-24.8667,113.6333,78.44,52,0,19.08,clear sky,AU,2021-12-11 05:00:47
489,asmar,35.0333,71.3581,57.43,13,38,7.0,scattered clouds,AF,2021-12-11 05:00:47
490,yenagoa,4.9247,6.2642,76.95,93,79,3.8,broken clouds,NG,2021-12-11 05:00:48
491,loandjili,-4.7561,11.8578,77.18,94,90,5.46,light rain,CG,2021-12-11 05:00:48
492,miracema do tocantins,-9.5618,-48.3967,72.66,98,96,3.36,overcast clouds,BR,2021-12-11 05:00:48
493,vila,42.0304,-8.1588,42.33,93,100,2.71,overcast clouds,PT,2021-12-11 05:00:49
494,velsk,61.0701,42.0983,-2.79,100,99,3.24,overcast clouds,RU,2021-12-11 05:00:49
495,srednekolymsk,67.45,153.6833,-49.49,100,62,1.66,broken clouds,RU,2021-12-11 05:00:50
496,pitimbu,-7.4706,-34.8086,79.29,77,13,12.28,few clouds,BR,2021-12-11 05:00:50
497,xuddur,4.1213,43.8894,73.02,59,22,23.49,few clouds,SO,2021-12-11 05:00:50
498,visnes,59.3556,5.2242,33.57,69,1,9.22,clear sky,NO,2021-12-11 05:00:51
499,shebalino,51.2917,85.6772,21.52,76,3,4.85,clear sky,RU,2021-12-11 05:00:51
500,skegness,53.1436,0.3363,37.22,90,5,9.64,clear sky,GB,2021-12-11 05:01:51
501,rocha,-34.4833,-54.3333,55.6,95,53,4.97,broken clouds,UY,2021-12-11 05:01:09
502,puerto carreno,6.189,-67.4859,77.83,70,75,7.47,broken clouds,CO,2021-12-11 05:01:52
503,roros,62.5747,11.3842,24.64,93,90,3.44,overcast clouds,NO,2021-12-11 05:01:52
504,cascais,38.6979,-9.4215,58.46,76,2,1.01,clear sky,PT,2021-12-11 05:01:53
505,hibbing,47.4272,-92.9377,20.86,93,90,0.0,overcast clouds,US,2021-12-11 05:01:53
506,nueva imperial,-38.7333,-72.95,51.17,95,64,2.46,broken clouds,CL,2021-12-11 05:01:53
507,hirado,33.3597,129.5531,64.38,66,100,11.21,overcast clouds,JP,2021-12-11 05:01:54
508,coihaique,-45.5752,-72.0662,55.35,67,0,1.14,clear sky,CL,2021-12-11 04:59:59
509,la reforma,25.0833,-108.05,66.74,80,89,6.85,overcast clouds,MX,2021-12-11 05:01:54
510,penzance,50.1186,-5.5371,48.76,84,100,11.77,overcast clouds,GB,2021-12-11 05:01:55
511,darien,41.752,-87.974,60.46,91,90,3.0,overcast clouds,US,2021-12-11 05:01:55
512,aksarka,66.5606,67.7975,9.81,90,100,19.46,light snow,RU,2021-12-11 05:01:55
513,kelso,46.1468,-122.9084,47.86,89,90,19.57,overcast clouds,US,2021-12-11 05:01:56
514,yerbogachen,61.2767,108.0108,-16.01,94,14,4.45,few clouds,RU,2021-12-11 05:01:56
515,ariquemes,-9.9133,-63.0408,73.29,99,100,2.33,overcast clouds,BR,2021-12-11 05:01:56
516,galle,6.0367,80.217,83.26,70,25,1.63,scattered clouds,LK,2021-12-11 05:01:57
517,cabedelo,-6.9811,-34.8339,79.43,77,14,13.0,few clouds,BR,2021-12-11 05:01:06
518,petropavlovsk-kamchatskiy,53.0452,158.6483,27.19,74,0,2.24,clear sky,RU,2021-12-11 05:01:57
519,batticaloa,7.7102,81.6924,83.1,70,19,7.96,few clouds,LK,2021-12-11 05:01:57
520,comal,29.8169,-98.3003,71.82,92,31,1.99,scattered clouds,US,2021-12-11 05:01:58
521,barranca,-10.75,-77.7667,66.24,87,90,6.87,overcast clouds,PE,2021-12-11 05:01:58
522,itanhem,-17.1664,-40.33,69.82,97,100,1.34,overcast clouds,BR,2021-12-11 05:01:59
523,verkh-chebula,56.0308,87.6218,18.18,76,100,17.31,overcast clouds,RU,2021-12-11 05:01:59
524,kachug,53.9606,105.8817,5.27,75,86,7.0,overcast clouds,RU,2021-12-11 05:01:59
525,kapit,2.0167,112.9333,80.28,85,100,2.01,overcast clouds,MY,2021-12-11 05:02:00
526,betioky,-23.7167,44.3833,86.94,45,100,5.95,overcast clouds,MG,2021-12-11 05:02:00
527,te anau,-45.4167,167.7167,54.12,69,95,7.11,overcast clouds,NZ,2021-12-11 05:02:00
528,kantunil,20.8,-89.0333,72.93,91,5,4.9,clear sky,MX,2021-12-11 05:02:01
529,the valley,18.217,-63.0578,80.1,71,0,25.37,clear sky,AI,2021-12-11 05:02:01
530,raduzhnyy,62.0961,77.475,9.39,92,100,15.17,overcast clouds,RU,2021-12-11 05:02:01
531,fenoarivo atsinanana,-17.3667,49.4167,78.82,71,100,1.45,light rain,MG,2021-12-11 05:02:02
532,hirara,24.8,125.2833,72.75,56,72,14.97,broken clouds,JP,2021-12-11 05:02:02
533,felanitx,39.4696,3.1483,55.96,79,86,6.58,overcast clouds,ES,2021-12-11 05:02:02
534,beboto,8.2668,16.939,67.12,29,55,2.73,broken clouds,TD,2021-12-11 05:02:03
535,lambarene,-0.7001,10.2406,75.02,96,99,1.59,overcast clouds,GA,2021-12-11 05:02:03
536,lasa,46.6166,10.7002,25.63,93,94,7.81,overcast clouds,IT,2021-12-11 05:02:04
537,suntar,62.1444,117.6319,-0.45,93,100,5.95,overcast clouds,RU,2021-12-11 05:02:04
538,monte gordo,37.1819,-7.4523,57.15,88,18,13.29,few clouds,PT,2021-12-11 05:02:04
539,nanakuli,21.3906,-158.1547,76.98,65,20,4.61,few clouds,US,2021-12-11 05:02:05
540,sawankhalok,17.316,99.8319,90.7,55,5,2.19,clear sky,TH,2021-12-11 05:02:05
541,shenjiamen,29.9576,122.298,59.74,66,8,6.15,clear sky,CN,2021-12-11 05:02:05
542,huarmey,-10.0681,-78.1522,67.44,87,100,7.18,overcast clouds,PE,2021-12-11 05:02:06
543,karlskoga,59.3267,14.5239,34.92,99,100,3.96,light rain,SE,2021-12-11 05:02:06
544,santa maria,-29.6842,-53.8069,63.28,66,99,7.09,overcast clouds,BR,2021-12-11 05:02:06
545,paracambi,-22.6086,-43.7128,73.22,93,84,2.01,broken clouds,BR,2021-12-11 05:02:07
546,marquette,46.5333,-87.6335,28.81,94,100,11.9,snow,US,2021-12-11 05:02:07
547,kabare,-2.4683,28.8242,64.11,92,99,1.79,light rain,CD,2021-12-11 05:02:07
548,smithers,54.7804,-127.1743,32.32,86,90,8.05,snow,CA,2021-12-11 05:03:08
549,erdenet,49.0333,104.0833,10.49,41,5,3.8,clear sky,MN,2021-12-11 05:03:08
550,ilhabela,-23.7781,-45.3581,68.0,88,32,4.88,scattered clouds,BR,2021-12-11 04:59:42
551,sistranda,63.7256,8.834,37.36,76,97,16.37,overcast clouds,NO,2021-12-11 05:03:09
552,lardos,36.0942,28.0157,58.95,77,80,10.38,broken clouds,GR,2021-12-11 05:03:09
553,saint-pierre,-21.3393,55.4781,83.84,67,0,13.8,clear sky,RE,2021-12-11 05:03:09
554,leh,34.1667,77.5833,9.93,50,0,3.18,clear sky,IN,2021-12-11 05:03:10
555,puerto escondido,15.85,-97.0667,81.43,69,75,0.0,broken clouds,MX,2021-12-11 05:03:10
556,corrente,-3.7367,-43.3394,73.44,96,100,2.46,overcast clouds,BR,2021-12-11 05:03:11
557,inhambane,-23.865,35.3833,81.61,73,17,7.7,few clouds,MZ,2021-12-11 05:03:11
558,george town,5.4112,100.3354,87.73,62,20,6.91,few clouds,MY,2021-12-11 05:01:38
559,meulaboh,4.1363,96.1285,85.78,66,58,4.21,broken clouds,ID,2021-12-11 05:03:11
560,dunedin,-45.8742,170.5036,50.81,89,100,5.99,overcast clouds,NZ,2021-12-11 05:01:23
561,lodja,-3.4833,23.4333,69.91,98,82,0.63,broken clouds,CD,2021-12-11 05:03:12
562,abapo,-18.8333,-63.4667,69.19,74,97,1.88,overcast clouds,BO,2021-12-11 05:03:12
563,shintomi,32.0785,131.4723,63.41,58,57,5.01,broken clouds,JP,2021-12-11 05:03:13
564,saint-augustin,51.226,-58.6502,20.46,52,100,6.98,overcast clouds,CA,2021-12-11 05:01:14
565,de aar,-30.6497,24.0123,69.53,62,0,20.51,clear sky,ZA,2021-12-11 05:03:13
566,chernyshevskiy,63.0128,112.4714,-14.39,96,99,5.37,overcast clouds,RU,2021-12-11 05:03:14
567,dolores hidalgo,21.1561,-100.9308,50.86,25,7,3.67,clear sky,MX,2021-12-11 05:03:14
568,pailon,-17.65,-62.75,77.9,74,76,6.08,broken clouds,BO,2021-12-11 05:03:14
569,yakovlevo,50.8603,36.4478,32.25,78,100,14.29,overcast clouds,RU,2021-12-11 05:03:15
570,suruc,36.9761,38.425,39.4,69,83,4.61,broken clouds,TR,2021-12-11 05:03:15
571,koundara,12.4833,-13.3,70.09,42,99,3.87,overcast clouds,GN,2021-12-11 05:03:15
572,inirida,3.8653,-67.9239,74.39,96,100,1.68,overcast clouds,CO,2021-12-11 05:03:16
573,sorland,67.667,12.6934,36.95,67,18,10.29,few clouds,NO,2021-12-11 05:03:16
574,ponta delgada,37.7333,-25.6667,64.51,94,40,14.97,scattered clouds,PT,2021-12-11 05:03:16
575,phan thiet,10.9333,108.1,81.52,61,64,4.47,broken clouds,VN,2021-12-11 05:03:17
576,troitskoye,52.9821,84.6757,12.6,80,62,5.75,broken clouds,RU,2021-12-11 05:03:17
577,fare,-16.7,-151.0167,80.26,75,30,10.25,light rain,PF,2021-12-11 05:03:17
578,sibiti,-3.6819,13.3499,67.59,99,97,0.69,light rain,CG,2021-12-11 05:03:18
579,seymchan,62.8833,152.4333,-47.67,97,40,0.65,scattered clouds,RU,2021-12-11 05:03:18
580,ocos,14.5094,-92.1933,78.01,82,1,4.76,clear sky,GT,2021-12-11 05:03:19
581,bulalacao,12.3254,121.3435,82.38,78,97,21.72,overcast clouds,PH,2021-12-11 05:03:19
582,kununurra,-15.7667,128.7333,100.38,34,40,5.75,scattered clouds,AU,2021-12-11 05:03:19
583,nioro,13.35,-15.75,71.56,52,88,3.22,overcast clouds,GM,2021-12-11 05:03:20
584,vanimo,-2.6741,141.3028,85.96,72,100,13.06,overcast clouds,PG,2021-12-11 05:03:20
585,dzerzhinskoye,56.8344,95.2283,16.05,84,100,8.03,light snow,RU,2021-12-11 05:03:20
586,salinopolis,-0.6136,-47.3561,79.66,84,38,10.09,scattered clouds,BR,2021-12-11 05:03:21
587,riyadh,24.6877,46.7219,56.39,38,41,3.98,scattered clouds,SA,2021-12-11 05:00:01
588,saint-ambroise,48.5501,-71.3324,18.57,99,98,3.47,overcast clouds,CA,2021-12-11 05:03:22
589,nuristan,35.3,70.8333,29.93,22,52,2.3,broken clouds,AF,2021-12-11 05:03:22
590,atotonilco el grande,20.2833,-98.6667,57.47,52,24,4.32,few clouds,MX,2021-12-11 05:03:22
591,szeged,46.253,20.1482,37.11,96,96,7.43,overcast clouds,HU,2021-12-11 05:03:23
592,san vicente,-26.6167,-54.1333,64.8,53,57,0.92,broken clouds,AR,2021-12-11 05:03:23
593,ambilobe,-13.2,49.05,84.76,45,60,6.6,broken clouds,MG,2021-12-11 05:04:23
594,beyneu,45.3167,55.2,36.81,96,100,16.89,overcast clouds,KZ,2021-12-11 05:04:24
595,umm lajj,25.0213,37.2685,76.05,33,94,4.14,overcast clouds,SA,2021-12-11 05:02:25
596,lakselv,70.0513,24.9718,15.75,79,75,18.41,broken clouds,NO,2021-12-11 05:04:24
597,tongren,27.7172,109.1853,50.47,91,100,4.45,overcast clouds,CN,2021-12-11 05:04:25
598,umm kaddadah,13.6017,26.6876,63.61,35,3,13.35,clear sky,SD,2021-12-11 05:04:25
599,voyvozh,62.892,54.9635,7.38,94,35,7.43,scattered clouds,RU,2021-12-11 05:04:25
600,baiyin,36.5583,104.2081,28.83,59,100,7.94,overcast clouds,CN,2021-12-11 05:04:26
601,kodinsk,58.6881,99.1844,2.03,91,96,4.99,overcast clouds,RU,2021-12-11 05:04:26
602,najran,17.4924,44.1277,55.69,39,2,2.08,clear sky,SA,2021-12-11 05:04:26
603,san policarpo,12.1791,125.5072,81.34,87,93,13.65,overcast clouds,PH,2021-12-11 05:04:27
604,borba,-4.3878,-59.5939,73.99,97,98,1.07,overcast clouds,BR,2021-12-11 05:04:27
605,botou,38.0667,116.5667,50.18,57,85,3.96,overcast clouds,CN,2021-12-11 05:04:27
606,quelimane,-17.8786,36.8883,84.61,64,56,8.37,broken clouds,MZ,2021-12-11 05:04:28
607,oxbow,49.2333,-102.1676,6.64,87,7,8.68,clear sky,CA,2021-12-11 05:04:28
608,praya,14.9215,-23.5087,70.34,83,20,17.27,few clouds,CV,2021-12-11 05:04:29
609,jatiroto,-7.8833,111.1167,86.56,61,76,8.08,broken clouds,ID,2021-12-11 05:04:29
610,kaniama,-7.5667,24.1833,68.02,95,100,2.48,overcast clouds,CD,2021-12-11 05:02:14
611,peniche,39.3558,-9.3811,57.61,88,25,16.24,scattered clouds,PT,2021-12-11 05:04:30
612,wanaka,-44.7,169.15,59.11,71,100,7.0,overcast clouds,NZ,2021-12-11 05:04:30
613,grants pass,42.439,-123.3284,41.9,90,1,0.0,mist,US,2021-12-11 05:04:04
614,ust-kuyga,70.0167,135.6,-17.27,98,100,4.81,overcast clouds,RU,2021-12-11 05:04:31
615,santol,15.1622,120.5675,85.95,53,75,6.53,broken clouds,PH,2021-12-11 05:04:31
616,vrangel,42.7297,133.0839,40.26,58,22,7.07,few clouds,RU,2021-12-11 05:04:31
617,saint anthony,45.0205,-93.218,29.35,93,90,5.99,snow,US,2021-12-11 05:04:32
618,ocampo,21.65,-101.5,50.74,26,73,5.19,broken clouds,MX,2021-12-11 05:04:32
619,noumea,-22.2763,166.4572,91.38,99,83,0.83,broken clouds,NC,2021-12-11 05:01:12
620,kieta,-6.2167,155.6333,83.25,75,100,6.46,overcast clouds,PG,2021-12-11 05:04:32
621,vitre,48.1178,-1.2058,38.28,89,48,5.08,scattered clouds,FR,2021-12-11 05:04:33
622,choya,52.0108,86.5467,16.97,73,20,3.15,few clouds,RU,2021-12-11 05:04:33
623,rognan,67.0953,15.3878,29.88,77,100,7.7,overcast clouds,NO,2021-12-11 05:04:33
624,araria,26.15,87.5167,74.44,34,0,8.19,clear sky,IN,2021-12-11 05:04:34
625,marawi,7.9986,124.2928,75.65,79,93,6.24,light rain,PH,2021-12-11 05:04:34
626,zalantun,48.0,122.7167,20.62,51,100,15.17,overcast clouds,CN,2021-12-11 05:04:35
627,skibotn,69.3913,20.2679,30.29,87,40,8.01,scattered clouds,NO,2021-12-11 05:04:35
628,ostersund,63.1792,14.6357,31.6,100,90,8.05,light snow,SE,2021-12-11 05:01:12
629,virginia beach,36.8529,-75.978,58.01,93,97,7.9,overcast clouds,US,2021-12-11 05:00:48
630,cockburn town,21.4612,-71.1419,80.17,73,2,20.6,clear sky,TC,2021-12-11 05:04:36
631,deputatskiy,69.3,139.9,-15.81,99,100,0.54,overcast clouds,RU,2021-12-11 05:04:36
632,horta,38.5333,-28.6333,62.67,84,3,14.5,clear sky,PT,2021-12-11 05:04:36
633,port huron,42.9709,-82.4249,46.15,93,90,15.01,mist,US,2021-12-11 05:00:46
634,vestmanna,62.1564,-7.1664,41.92,93,75,14.97,broken clouds,FO,2021-12-11 05:04:37
635,zaysan,47.4667,84.8667,5.18,87,16,2.51,few clouds,KZ,2021-12-11 05:04:37
636,aquidauana,-20.4711,-55.7872,74.5,53,51,1.83,broken clouds,BR,2021-12-11 05:04:37
637,shaunavon,49.6501,-108.4181,17.74,75,62,13.67,broken clouds,CA,2021-12-11 05:04:38
638,funadhoo,6.15,73.2667,83.01,75,3,13.33,clear sky,MV,2021-12-11 05:04:38
639,viedma,-40.8135,-62.9967,68.05,76,2,13.85,clear sky,AR,2021-12-11 05:04:38
640,tazovskiy,67.4667,78.7,-1.16,95,100,16.51,light snow,RU,2021-12-11 05:05:39
641,tuam,53.5167,-8.85,50.58,92,100,13.18,overcast clouds,IE,2021-12-11 05:05:39
642,campbell river,50.0163,-125.2446,43.45,95,100,7.0,overcast clouds,CA,2021-12-11 05:05:37
643,karoi,-16.8099,29.6925,73.18,41,3,10.83,clear sky,ZW,2021-12-11 05:05:40
644,romny,50.751,33.4747,38.35,87,100,18.25,overcast clouds,UA,2021-12-11 05:05:40
645,goundam,16.4145,-3.6708,67.15,9,97,7.9,overcast clouds,ML,2021-12-11 05:05:41
